[
  {
    "category": "I. MENARA SUAR",
    "stations": [
      { "id": "5825", "name": "Mensu Pulau May (Kab.Malteng-Masohi)", "lat": -5.39936, "lng": 127.79035, "power": "EG/EB", "year": "2012", "status": "NIHIL", "dur": 0, "cond": 80, "note": "-" },
      { "id": "5891", "name": "Mensu Pu Fogl (Kab Bursel-Namrole)", "lat": -3.28925, "lng": 125.99799, "power": "EG/EB", "year": "1988", "status": "NIHIL", "dur": 0, "cond": 40, "note": "Proses Penghapusan BMN" },
      { "id": "5904", "name": "Mensu Tg. Waka(Kab. Kep Sula-Sanana)", "lat": -2.47000, "lng": 126.04583, "power": "EG/EB", "year": "1998", "status": "NIHIL", "dur": 0, "cond": 90, "note": "-" },
      { "id": "5910", "name": "Mensu Pu Suanggi (Kab SBB-Piru)", "lat": -3.30000, "lng": 127.47361, "power": "EG/EB", "year": "1882 / 1965 / 2007 / 2021", "status": "NIHIL", "dur": 0, "cond": 100, "note": "-" },
      { "id": "5916", "name": "Mensu Tg. Dehekalano (Kab .Kep Sula-Sanana)", "lat": -1.82167, "lng": 126.48667, "power": "EG/EB", "year": "1982", "status": "NIHIL", "dur": 0, "cond": 70, "note": "-" },
      { "id": "5917", "name": "Mensu Pu. Lawin(Kab.Halsel-Bacan)", "lat": -1.52222, "lng": 128.74722, "power": "EG/EB", "year": "1990/2007", "status": "NIHIL", "dur": 0, "cond": 90, "note": "-" },
      { "id": "5920", "name": "Mensu Tg Nusaniwe (Kota Ambon)", "lat": -3.79167, "lng": 128.09167, "power": "EG/EB", "year": "1882 / 1926 / 1974", "status": "NIHIL", "dur": 0, "cond": 1.0, "note": "-" },
      { "id": "5922", "name": "Mensu Tg Bartutul (Kab Bursel-Namrole)", "lat": -3.89639, "lng": 127.21333, "power": "EG/EB", "year": "2002", "status": "NIHIL", "dur": 0, "cond": 90, "note": "-" },
      { "id": "5985", "name": "Mensu Tg. Babo(Kab.Halbar-Jailolo)", "lat": 1.03661, "lng": 27.40787, "power": "EG/EB", "year": "2002", "status": "NIHIL", "dur": 0, "cond": 90, "note": "-" },
      { "id": "5988", "name": "Mensu Tg. Sopi(Kab.Morotai-Daruba)", "lat": 2.63861, "lng": 128.56472, "power": "EG/EB", "year": "2002", "status": "NIHIL", "dur": 0, "cond": 90, "note": "-" },
      { "id": "6215", "name": "Mensu Tg. Akelamo(Kab.Halsel-Bacan)", "lat": 1.66083, "lng": 127.41194, "power": "EG/EB", "year": "1996", "status": "NIHIL", "dur": 0, "cond": 80, "note": "-" },
      { "id": "6387,1", "name": "Mensu Pulau Yiew(Kab.Haltim-Buli)", "lat": 0.72750, "lng": 129.13611, "power": "EG/EB", "year": "2007", "status": "PADAM", "dur": 31, "cond": 60, "note": "RUSAK BERAT" }
    ]
  },
  {
    "category": "II. RAMBU SUAR",
    "stations": [
      { "id": "5580,11", "name": "Ramsu Pu.Gunung Api Kisar", "lat": -6.63694, "lng": 126.66444, "power": "-", "year": "-", "status": "PADAM", "dur": 31, "cond": 0, "note": "ROBOH" },
      { "id": "5580,15", "name": "Pu. Penyu Bingkudu", "lat": -5.34336, "lng": 127.77756, "power": "EB", "year": "1996", "status": "PADAM", "dur": 31, "cond": 75, "note": "-" },
      { "id": "5895", "name": "Sarang Burung", "lat": 0.25889, "lng": 127.01167, "power": "EB", "year": "1991/2014", "status": "PADAM", "dur": 31, "cond": 80, "note": "-" },
      { "id": "5897", "name": "Tg. Gegoru", "lat": 0.75361, "lng": 127.15861, "power": "EB", "year": "1996", "status": "NIHIL", "dur": 0, "cond": 80, "note": "-" },
      { "id": "5899", "name": "Tg. Kerbau", "lat": 3.27361, "lng": 127.12000, "power": "EB", "year": "1990/2013", "status": "PADAM", "dur": 31, "cond": 85, "note": "-" },
      { "id": "5901", "name": "Pu. Pokal", "lat": 0.44028, "lng": 127.71889, "power": "EB", "year": "1990", "status": "NIHIL", "dur": 0, "cond": 80, "note": "-" },
      { "id": "5903", "name": "Pu. Seku", "lat": 2.00000, "lng": 124.30278, "power": "-", "year": "1991", "status": "PADAM", "dur": 31, "cond": 0, "note": "ROBOH 2002" },
      { "id": "5905", "name": "Tanjung Fatkayuan / Sanana", "lat": -2.45000, "lng": 126.06667, "power": "EB", "year": "2010", "status": "PADAM", "dur": 31, "cond": 80, "note": "-" },
      { "id": "5909", "name": "Pulau Niene", "lat": -2.91111, "lng": 127.90417, "power": "EB", "year": "1982/1993", "status": "NIHIL", "dur": 0, "cond": 80, "note": "-" },
      { "id": "5936", "name": "Pu. Elanusatelu", "lat": -3.65000, "lng": 127.90833, "power": "EB", "year": "1993", "status": "NIHIL", "dur": 0, "cond": 80, "note": "-" },
      { "id": "5941", "name": "Pu. Suanggi Banda", "lat": -4.32592, "lng": 129.70755, "power": "EB", "year": "1984", "status": "NIHIL", "dur": 0, "cond": 80, "note": "-" },
      { "id": "5945", "name": "Pu. Kassa", "lat": -3.30833, "lng": 128.13208, "power": "EB", "year": "1993/2013", "status": "NIHIL", "dur": 0, "cond": 80, "note": "-" },
      { "id": "5971,1", "name": "Tg. Kuako", "lat": -3.32694, "lng": 128.91111, "power": "EB", "year": "1984/2007", "status": "NIHIL", "dur": 0, "cond": 80, "note": "-" },
      { "id": "5983", "name": "Pu. Makian", "lat": 0.32929, "lng": 127.34491, "power": "EB", "year": "2002", "status": "PADAM", "dur": 31, "cond": 90, "note": "-" },
      { "id": "5984", "name": "Pu. Hiri", "lat": 0.89823, "lng": 127.30428, "power": "EB", "year": "2002", "status": "NIHIL", "dur": 0, "cond": 90, "note": "-" },
      { "id": "5986", "name": "Pu. Sidanga", "lat": 1.66306, "lng": 127.48158, "power": "EB", "year": "2002", "status": "PADAM", "dur": 31, "cond": 90, "note": "-" },
      { "id": "5987", "name": "Pu. Mayu", "lat": 1.32312, "lng": 126.41489, "power": "EB", "year": "2002", "status": "PADAM", "dur": 31, "cond": 85, "note": "-" },
      { "id": "5989", "name": "Pu. Doi / Sideng", "lat": 2.29321, "lng": 127.77580, "power": "EB", "year": "NIHIL", "dur": 0, "cond": 85, "note": "-" },
      { "id": "5992", "name": "Tg. Kayu Merah", "lat": 0.76111, "lng": 127.35222, "power": "EB", "year": "NIHIL", "dur": 0, "cond": 85, "note": "-" },
      { "id": "6387", "name": "Pu. Leleve", "lat": 0.73117, "lng": 128.55350, "power": "EB", "year": "PADAM", "dur": 31, "cond": 85, "note": "-" }
    ]
  },
  {
    "category": "III. RAMBU SUAR TUNTUN",
    "stations": [
      { "id": "5392", "name": "Ramsu Falabisahaya Hijau", "lat": -1.77436, "lng": 125.50621, "power": "EB", "year": "2014", "status": "PADAM", "dur": 31, "cond": 85, "note": "-" },
      { "id": "5393", "name": "Ramsu Falabisahaya Merah", "lat": -1.78392, "lng": 125.49085, "power": "EB", "year": "2014", "status": "NIHIL", "dur": 0, "cond": 85, "note": "-" },
      { "id": "5669,1", "name": "Alur masuk Pelabuhan Undur merah", "lat": -4.00335, "lng": 131.37788, "power": "-", "year": "2016", "status": "PADAM", "dur": 31, "cond": 0, "note": "-" },
      { "id": "5669,11", "name": "Alur masuk Pelabuhan Undur hijau 1", "lat": -4.00931, "lng": 131.37843, "power": "-", "year": "2016", "status": "PADAM", "dur": 31, "cond": 0, "note": "-" },
      { "id": "5669,12", "name": "Alur masuk Pelabuhan Undur merah 2", "lat": -4.00075, "lng": 131.38066, "power": "EB", "year": "2016", "status": "NIHIL", "dur": 0, "cond": 85, "note": "-" },
      { "id": "5892,1", "name": "Alur masuk Pel Ulima merah", "lat": -3.81771, "lng": 127.18663, "power": "EB", "year": "2014", "status": "NIHIL", "dur": 0, "cond": 85, "note": "-" },
      { "id": "5891,2", "name": "Alur masuk Pel Ulima hijau", "lat": -3.82313, "lng": 127.17481, "power": "EB", "year": "2014", "status": "NIHIL", "dur": 0, "cond": 85, "note": "-" },
      { "id": "5900,1", "name": "Alur Masuk Pel. Namlea Merah", "lat": -3.26917, "lng": 127.08000, "power": "EB", "year": "2008/2011", "status": "NIHIL", "dur": 0, "cond": 80, "note": "-" },
      { "id": "5900,2", "name": "Alur Masuk Pel. Namlea Hijau", "lat": -3.27019, "lng": 127.08133, "power": "-", "year": "2009", "status": "PADAM", "dur": 31, "cond": 0, "note": "-" },
      { "id": "5900,3", "name": "Selat Pokopoko / Helberg Kardinal timur", "lat": 0.40673, "lng": 127.29458, "power": "EB", "year": "2015", "status": "PADAM", "dur": 31, "cond": 85, "note": "-" },
      { "id": "5900,4", "name": "Selat Pokopoko Kardinal barat", "lat": 0.43950, "lng": 127.30885, "power": "EB", "year": "2015", "status": "PADAM", "dur": 31, "cond": 80, "note": "-" },
      { "id": "5900,5", "name": "Alur masuk Namlea Putih", "lat": -3.28075, "lng": 127.08278, "power": "-", "year": "2017", "status": "PADAM", "dur": 31, "cond": 0, "note": "-" },
      { "id": "5900,8", "name": "Alur Masuk Wayaloar hijau", "lat": -1.73166, "lng": 127.64657, "power": "EB", "year": "2013", "status": "PADAM", "dur": 31, "cond": 85, "note": "-" },
      { "id": "5900,9", "name": "Alur Masuk Wayaloar merah", "lat": -1.73273, "lng": 127.61053, "power": "EB", "year": "2013", "status": "NIHIL", "dur": 0, "cond": 85, "note": "-" },
      { "id": "5902", "name": "Kardinal Barat Pu Pasituri / Kawasi", "lat": -1.52441, "lng": 127.35479, "power": "-", "year": "2014", "status": "NIHIL", "dur": 0, "cond": 85, "note": "-" },
      { "id": "5902,1", "name": "Kardinal Timur Pu Pasituri / Kawasi", "lat": -1.52563, "lng": 127.35887, "power": "-", "year": "2014", "status": "NIHIL", "dur": 0, "cond": 85, "note": "-" },
      { "id": "5902,2", "name": "Alur Masuk Hijau Kawasi", "lat": -1.55423, "lng": 127.40374, "power": "-", "year": "2014", "status": "PADAM", "dur": 31, "cond": 0, "note": "ROBOH 2023" },
      { "id": "5902,3", "name": "Alur Masuk Merah Pu Malamala/Kawasi", "lat": -1.52335, "lng": 127.37865, "power": "EB", "year": "2014", "status": "NIHIL", "dur": 0, "cond": 85, "note": "-" },
      { "id": "5902,4", "name": "Kardinal Timur Pu Jerum", "lat": -1.23281, "lng": 127.70504, "power": "EB", "year": "2014", "status": "NIHIL", "dur": 0, "cond": 85, "note": "-" },
      { "id": "5902,5", "name": "Alur masuk Pel. Jojame", "lat": -1.20668, "lng": 127.60867, "power": "EB", "year": "2014", "status": "NIHIL", "dur": 0, "cond": 85, "note": "-" },
      { "id": "5902,6", "name": "Pu Santare/Hijau Laiwui 2", "lat": -1.29630, "lng": 127.71475, "power": "EB", "year": "2014", "status": "NIHIL", "dur": 0, "cond": 85, "note": "-" },
      { "id": "5902,7", "name": "Alur masuk Jikotamo / Laiwui Merah 1", "lat": -1.30944, "lng": 127.68580, "power": "EB", "year": "2014", "status": "NIHIL", "dur": 0, "cond": 85, "note": "-" },
      { "id": "5902,8", "name": "Alur masuk Jikotamo / Laiwui Hijau 3", "lat": -1.31972, "lng": 127.68645, "power": "EB", "year": "2014", "status": "NIHIL", "dur": 0, "cond": 85, "note": "-" },
      { "id": "5902,9", "name": "Alur masuk Jikotamo / Laiwui Hijau 4", "lat": -1.33233, "lng": 127.66629, "power": "EB", "year": "2014", "status": "NIHIL", "dur": 0, "cond": 85, "note": "-" },
      { "id": "5906,1", "name": "Alur Masuk Pel.Maibufa Hijau", "lat": 2.04519, "lng": 125.86669, "power": "EB", "year": "2010", "status": "PADAM", "dur": 31, "cond": 80, "note": "-" },
      { "id": "5906,2", "name": "Alur Masuk Pel.Maibufa Merah", "lat": 2.00808, "lng": 125.87058, "power": "EB", "year": "2010", "status": "PADAM", "dur": 31, "cond": 80, "note": "-" },
      { "id": "5911,2", "name": "Alur masuk Pel. Sanana hijau", "lat": -2.55306, "lng": 126.35339, "power": "EB", "year": "2015", "status": "PADAM", "dur": 31, "cond": 65, "note": "-" },
      { "id": "5912", "name": "Alur masuk Tobelo hijau", "lat": 1.72589, "lng": 128.01829, "power": "EB", "year": "2015", "status": "NIHIL", "dur": 0, "cond": 85, "note": "-" },
      { "id": "5912,1", "name": "Kardinal Selatan Tobelo", "lat": 1.72818, "lng": 128.02285, "power": "EB", "year": "2014", "status": "NIHIL", "dur": 0, "cond": 85, "note": "-" },
      { "id": "5912,4", "name": "Alur masuk Pel Jailolo Merah", "lat": 1.06654, "lng": 127.47062, "power": "EB", "year": "2014", "status": "NIHIL", "dur": 0, "cond": 85, "note": "-" },
      { "id": "5912,5", "name": "Kardinal Barat Jailolo", "lat": 1.05051, "lng": 127.47850, "power": "EB", "year": "2014", "status": "NIHIL", "dur": 0, "cond": 85, "note": "-" },
      { "id": "5913,4", "name": "Alur Masuk Pel.Tobelo Putih", "lat": 1.72278, "lng": 128.01167, "power": "EB", "year": "2003", "status": "NIHIL", "dur": 0, "cond": 80, "note": "-" },
      { "id": "5913,5", "name": "Alur Masuk Pel.Tobelo Hijau", "lat": 1.20347, "lng": 128.01667, "power": "EB", "year": "2003", "status": "NIHIL", "dur": 0, "cond": 80, "note": "-" },
      { "id": "5913,6", "name": "Alur Masuk Pel.Tobelo Merah", "lat": 1.72306, "lng": 128.01175, "power": "EB", "year": "2003", "status": "NIHIL", "dur": 0, "cond": 80, "note": "-" },
      { "id": "5913,8", "name": "Alur masuk Galela Hijau", "lat": 1.82453, "lng": 127.84564, "power": "EB", "year": "2015", "status": "PADAM", "dur": 31, "cond": 85, "note": "-" },
      { "id": "5913,9", "name": "Alur masuk Galela Merah", "lat": 1.82116, "lng": 127.85091, "power": "EB", "year": "2015", "status": "PADAM", "dur": 31, "cond": 85, "note": "-" },
      { "id": "5914", "name": "Alur Masuk Sanana Merah", "lat": -2.05722, "lng": 126.01639, "power": "EB", "year": "1982/1996", "status": "PADAM", "dur": 31, "cond": 70, "note": "-" },
      { "id": "5915,3", "name": "Alur masuk Daruba Hijau", "lat": 2.03738, "lng": 128.28673, "power": "-", "year": "2015", "status": "PADAM", "dur": 31, "cond": 0, "note": "-" },
      { "id": "5915,4", "name": "Kr.Dododahaha / Daruba Merah", "lat": 2.03784, "lng": 128.27222, "power": "EB", "year": "2014", "status": "NIHIL", "dur": 0, "cond": 85, "note": "-" },
      { "id": "5928", "name": "Alur masuk Mafa Hijau", "lat": -0.05584, "lng": 127.89944, "power": "EB", "year": "2015", "status": "NIHIL", "dur": 0, "cond": 85, "note": "-" },
      { "id": "5929", "name": "Alur masuk Mafa Merah", "lat": -0.05457, "lng": 127.89492, "power": "EB", "year": "2015", "status": "NIHIL", "dur": 0, "cond": 85, "note": "-" },
      { "id": "5930,1", "name": "Alur masuk Hatu Piru Merah", "lat": -3.17912, "lng": 128.17637, "power": "EB", "year": "2013", "status": "NIHIL", "dur": 0, "cond": 85, "note": "-" },
      { "id": "5930,2", "name": "Alur masuk Hatu Piru Hijau", "lat": -3.17628, "lng": 128.11306, "power": "EB", "year": "2013", "status": "NIHIL", "dur": 0, "cond": 85, "note": "-" },
      { "id": "5931", "name": "Tg. Galala", "lat": -3.66359, "lng": 128.18881, "power": "EB", "year": "1983/2011", "status": "NIHIL", "dur": 0, "cond": 85, "note": "-" },
      { "id": "5932", "name": "Tg Marthafrons", "lat": -3.65111, "lng": 128.20158, "power": "EB", "year": "1983/2007", "status": "NIHIL", "dur": 0, "cond": 90, "note": "-" },
      { "id": "5932,2_P", "name": "Kardinal Barat Pu.Pombo", "lat": -3.53853, "lng": 128.37645, "power": "-", "year": "2013", "status": "PADAM", "dur": 31, "cond": 0, "note": "-" },
      { "id": "5932,1_T", "name": "Alur masuk Pel Tulehu (kr Molu)", "lat": -3.52129, "lng": 128.40748, "power": "EB", "year": "2013", "status": "NIHIL", "dur": 0, "cond": 80, "note": "-" },
      { "id": "5932,1_N", "name": "Alur masuk Pel Namrole merah", "lat": -3.86010, "lng": 126.72144, "power": "EB", "year": "2015", "status": "PADAM", "dur": 31, "cond": 0, "note": "ROBOH JULI 2025" },
      { "id": "5932,2_N", "name": "Alur masuk Pel Namrole hijau", "lat": -3.86000, "lng": 126.72870, "power": "-", "year": "2015", "status": "PADAM", "dur": 31, "cond": 0, "note": "-" },
      { "id": "5933", "name": "Tg Wainitu / Benteng", "lat": -3.70194, "lng": 128.13367, "power": "EB", "year": "1993", "status": "NIHIL", "dur": 0, "cond": 80, "note": "-" },
      { "id": "5934", "name": "Tg. Waisikula", "lat": -3.71806, "lng": 128.08347, "power": "EB", "year": "1992", "status": "NIHIL", "dur": 0, "cond": 80, "note": "-" },
      { "id": "5937", "name": "Kr. Kailolo", "lat": -3.52083, "lng": 128.42361, "power": "EB", "year": "1986/2011", "status": "NIHIL", "dur": 0, "cond": 90, "note": "-" },
      { "id": "5938", "name": "Kr.Hatumury / Pelauw", "lat": -3.50833, "lng": 128.43750, "power": "EB", "year": "1986/2007", "status": "PADAM", "dur": 31, "cond": 80, "note": "-" },
      { "id": "5959", "name": "Batu Sarip", "lat": -4.50319, "lng": 129.89728, "power": "EB", "year": "1992", "status": "NIHIL", "dur": 0, "cond": 80, "note": "-" },
      { "id": "5961", "name": "Tg. Batu Mati/Banda", "lat": -4.51263, "lng": 129.88705, "power": "EB", "year": "1992", "status": "NIHIL", "dur": 0, "cond": 80, "note": "-" },
      { "id": "5965", "name": "Kr Hatilang / Wahai Hijau", "lat": -2.77611, "lng": 129.50847, "power": "EB", "year": "1998/2015", "status": "NIHIL", "dur": 0, "cond": 90, "note": "-" },
      { "id": "5966", "name": "Kr Embarkai / Wahai Merah", "lat": -2.78639, "lng": 129.51069, "power": "EB", "year": "1994/2010", "status": "NIHIL", "dur": 0, "cond": 80, "note": "-" },
      { "id": "5966,1", "name": "Alur masuk Kobisadar Merah", "lat": -2.88973, "lng": 129.83759, "power": "-", "year": "2013", "status": "PADAM", "dur": 31, "cond": 0, "note": "-" },
      { "id": "5966,2", "name": "Alur masuk Kobisadar Hijau", "lat": -2.88773, "lng": 129.80789, "power": "EB", "year": "2013", "status": "NIHIL", "dur": 0, "cond": 85, "note": "-" },
      { "id": "5967", "name": "Alur masuk Pel. Air Kasar Hijau", "lat": -3.53982, "lng": 130.85282, "power": "EB", "year": "2016", "status": "NIHIL", "dur": 0, "cond": 90, "note": "-" },
      { "id": "5967,1", "name": "Alur masuk Pel. Air Kasar Merah 1", "lat": -3.54109, "lng": 130.86541, "power": "EB", "year": "2016", "status": "NIHIL", "dur": 0, "cond": 90, "note": "-" },
      { "id": "5967,2", "name": "Alur masuk Pel. Air Kasar hijau 2", "lat": -3.54417, "lng": 130.85652, "power": "EB", "year": "2016", "status": "NIHIL", "dur": 0, "cond": 90, "note": "-" },
      { "id": "5968_W", "name": "Tg Hewol/Wahai", "lat": -2.77333, "lng": 129.51000, "power": "EB", "year": "2013", "status": "NIHIL", "dur": 0, "cond": 80, "note": "-" },
      { "id": "5968_M", "name": "Pu. Mandorang", "lat": 3.47394, "lng": 131.06805, "power": "EB", "year": "1994/2019", "status": "NIHIL", "dur": 0, "cond": 95, "note": "-" },
      { "id": "5968,1", "name": "Alur masuk Pel Gorom Merah", "lat": -4.00445, "lng": 131.36854, "power": "EB", "year": "2013", "status": "NIHIL", "dur": 0, "cond": 80, "note": "-" },
      { "id": "5968,2", "name": "Alur masuk Pel Gorom Hijau", "lat": -4.00745, "lng": 131.35634, "power": "EB", "year": "2013", "status": "PADAM", "dur": 31, "cond": 0, "note": "ROBOH" },
      { "id": "5969", "name": "Kr Namalen / Gorom", "lat": -3.94444, "lng": 131.42083, "power": "EB", "year": "1994/2019", "status": "NIHIL", "dur": 0, "cond": 95, "note": "-" },
      { "id": "5970,1", "name": "Alur Masuk Pel. Geser Hijau", "lat": -3.89988, "lng": 130.90654, "power": "EB", "year": "2007", "status": "PADAM", "dur": 31, "cond": 65, "note": "RUSAK BERAT" },
      { "id": "5970,2", "name": "Alur Masuk Pel. Geser Merah", "lat": -3.91388, "lng": 130.89833, "power": "EB", "year": "2007", "status": "PADAM", "dur": 31, "cond": 65, "note": "RUSAK BERAT" },
      { "id": "5970,3", "name": "Alur Masuk Pel. Geser Merah", "lat": -3.87499, "lng": 130.89221, "power": "EB", "year": "2007", "status": "PADAM", "dur": 31, "cond": 65, "note": "RUSAK BERAT" },
      { "id": "5970,4", "name": "Alur Masuk Pel. Geser Merah", "lat": -3.89833, "lng": 130.89556, "power": "EB", "year": "2007", "status": "NIHIL", "dur": 0, "cond": 65, "note": "-" },
      { "id": "5970,5", "name": "Alur Masuk Pel. Geser Hijau", "lat": -3.87233, "lng": 130.89775, "power": "EB", "year": "2007/2019", "status": "NIHIL", "dur": 0, "cond": 100, "note": "-" },
      { "id": "5971,2", "name": "Alur masuk Amahai Merah", "lat": -3.32959, "lng": 128.92233, "power": "EB", "year": "2003", "status": "NIHIL", "dur": 0, "cond": 70, "note": "-" },
      { "id": "5973,1", "name": "Alur masuk Sesar Bula merah", "lat": -3.05221, "lng": 130.43095, "power": "EB", "year": "2014", "status": "NIHIL", "dur": 0, "cond": 85, "note": "-" },
      { "id": "5973,2", "name": "Alur masuk Sesar Bula hijau", "lat": -3.04855, "lng": 130.44347, "power": "EB", "year": "2014", "status": "NIHIL", "dur": 0, "cond": 85, "note": "-" },
      { "id": "5973,8", "name": "Karang Bais", "lat": -2.93145, "lng": 130.43909, "power": "EB", "year": "2011", "status": "PADAM", "dur": 31, "cond": 80, "note": "-" },
      { "id": "5974,3", "name": "Bere bere Merah 1", "lat": 2.37858, "lng": 128.67098, "power": "EB", "year": "2016", "status": "PADAM", "dur": 31, "cond": 90, "note": "-" },
      { "id": "5974,4", "name": "Bere bere Merah 2", "lat": 2.38545, "lng": 128.67115, "power": "EB", "year": "2016", "status": "NIHIL", "dur": 0, "cond": 90, "note": "-" },
      { "id": "5974,5", "name": "Bere bere Hijau", "lat": 2.37744, "lng": 128.67516, "power": "EB", "year": "2016", "status": "PADAM", "dur": 31, "cond": 90, "note": "ROBOH" },
      { "id": "5974,7", "name": "Kardinal Barat Wayabula", "lat": 2.27878, "lng": 128.18671, "power": "EB", "year": "2015", "status": "PADAM", "dur": 31, "cond": 80, "note": "-" },
      { "id": "5974,8_W", "name": "Kardinal Timur Pu.Rao Wayabula", "lat": 2.30505, "lng": 128.18728, "power": "EB", "year": "2015", "status": "PADAM", "dur": 31, "cond": 80, "note": "-" },
      { "id": "5989,2", "name": "Alur masuk Dama Hijau", "lat": 2.21726, "lng": 127.80406, "power": "EB", "year": "2015", "status": "NIHIL", "dur": 0, "cond": 90, "note": "-" },
      { "id": "5989,3", "name": "Alur masuk Dama Merah", "lat": 2.21773, "lng": 127.79206, "power": "EB", "year": "2015", "status": "NIHIL", "dur": 0, "cond": 90, "note": "-" },
      { "id": "5991,3", "name": "Pu. Pilongga", "lat": 0.70000, "lng": 127.46667, "power": "EB", "year": "2006", "status": "NIHIL", "dur": 0, "cond": 30, "note": "RUSAK BERAT" },
      { "id": "6386", "name": "Alur masuk Pel.Buli Merah", "lat": 0.88556, "lng": 128.30245, "power": "EB", "year": "2003", "status": "PADAM", "dur": 31, "cond": 80, "note": "-" },
      { "id": "6386,10", "name": "Alur masuk Buli Hijau", "lat": 0.89310, "lng": 128.30392, "power": "EB", "year": "2015", "status": "NIHIL", "dur": 0, "cond": 85, "note": "-" },
      { "id": "6386,11", "name": "Alur masuk Buli Merah", "lat": 0.88411, "lng": 128.30528, "power": "EB", "year": "2015", "status": "NIHIL", "dur": 0, "cond": 85, "note": "-" },
      { "id": "5981,9", "name": "Alur masuk Bobong Merah 1", "lat": -1.91421, "lng": 124.36824, "power": "EB", "year": "2015", "status": "NIHIL", "dur": 0, "cond": 85, "note": "-" },
      { "id": "5981,10", "name": "Alur masuk Bobong Merah 2", "lat": -1.95022, "lng": 124.37679, "power": "EB", "year": "2015", "status": "NIHIL", "dur": 0, "cond": 85, "note": "-" },
      { "id": "5979,2", "name": "Tikong Hijau", "lat": -1.61834, "lng": 124.53379, "power": "EB", "year": "2015", "status": "NIHIL", "dur": 0, "cond": 85, "note": "-" },
      { "id": "5979,3", "name": "Tikong Merah", "lat": -1.64144, "lng": 124.53634, "power": "EB", "year": "2015", "status": "NIHIL", "dur": 0, "cond": 85, "note": "-" },
      { "id": "SOPI_M", "name": "Sopi Merah", "lat": 2.58407, "lng": 128.52836, "power": "-", "year": "2016", "status": "PADAM", "dur": 31, "cond": 0, "note": "ROBOH" },
      { "id": "SOPI_H1", "name": "Sopi Hijau 1", "lat": 2.58424, "lng": 128.51584, "power": "-", "year": "2016", "status": "PADAM", "dur": 31, "cond": 0, "note": "ROBOH" },
      { "id": "SOPI_H2", "name": "Sopi Hijau 2", "lat": 2.58121, "lng": 128.52653, "power": "-", "year": "2016", "status": "PADAM", "dur": 31, "cond": 0, "note": "ROBOH" },
      { "id": "KUM_KT", "name": "Kumber Kardinal timur", "lat": -4.50462, "lng": 129.90695, "power": "EB", "year": "2014", "status": "NIHIL", "dur": 0, "cond": 85, "note": "-" },
      { "id": "KUM_KU", "name": "Kumber Kardinal utara", "lat": -4.51032, "lng": 129.92257, "power": "EB", "year": "2014", "status": "NIHIL", "dur": 0, "cond": 85, "note": "-" },
      { "id": "BATU_A", "name": "Batu Anyer", "lat": -1.39500, "lng": 128.94167, "power": "EB", "year": "2008", "status": "NIHIL", "dur": 0, "cond": 80, "note": "-" },
      { "id": "MANIPA_H", "name": "Manipa Hijau", "lat": -3.35484, "lng": 127.58134, "power": "EB", "year": "2017", "status": "NIHIL", "dur": 0, "cond": 90, "note": "-" },
      { "id": "NANASI_M", "name": "Alur Masuk Pel.Nanasi/Fogi Merah", "lat": -3.21011, "lng": 126.00136, "power": "EB", "year": "2019", "status": "NIHIL", "dur": 0, "cond": 90, "note": "-" },
      { "id": "NANASI_H", "name": "Alur Masuk Pel.Nanasi/Fogi Hijau", "lat": -3.80287, "lng": 125.35205, "power": "EB", "year": "2019", "status": "NIHIL", "dur": 0, "cond": 90, "note": "-" },
      { "id": "DOFA_M", "name": "Alur Masuk Pel.Dofa Merah", "lat": -1.79923, "lng": 125.35953, "power": "EB", "year": "2019", "status": "NIHIL", "dur": 0, "cond": 90, "note": "-" },
      { "id": "DOFA_H", "name": "Alur Masuk Pel.Dofa Hijau", "lat": -1.80287, "lng": 125.35205, "power": "EB", "year": "2019", "status": "PADAM", "dur": 31, "cond": 90, "note": "-" },
      { "id": "SOFFIFI_M", "name": "Alur Masuk Pel.Soffifi Merah", "lat": 0.76433, "lng": 127.57894, "power": "EB", "year": "2019", "status": "NIHIL", "dur": 0, "cond": 90, "note": "-" },
      { "id": "SOFFIFI_H", "name": "Alur Masuk Pel.Soffifi Hijau", "lat": 0.76068, "lng": 127.58146, "power": "EB", "year": "2019", "status": "NIHIL", "dur": 0, "cond": 90, "note": "-" }
    ]
  },
  {
    "category": "IV. RAMBU SUAR LAMPU PELABUHAN",
    "stations": [
      { "id": "5080", "name": "Ramsu Pel. Gorom", "lat": -3.99528, "lng": 131.37694, "power": "EB", "year": "2007", "status": "NIHIL", "dur": 0, "cond": 90, "note": "-" },
      { "id": "5391", "name": "Ramsu Pelabuhan Falabisahaya", "lat": -1.78968, "lng": 125.48378, "power": "EB", "year": "2014", "status": "NIHIL", "dur": 0, "cond": 85, "note": "-" },
      { "id": "5890", "name": "Ramsu Pelabuhan Leksula", "lat": -3.77778, "lng": 126.51667, "power": "EB", "year": "1990/2015", "status": "NIHIL", "dur": 0, "cond": 90, "note": "-" },
      { "id": "5890.1", "name": "Ramsu Pelabuhan Teluk Bara", "lat": -3.17288, "lng": 126.22660, "power": "EB", "year": "1990", "status": "NIHIL", "dur": 0, "cond": 90, "note": "-" },
      { "id": "5900", "name": "Ramsu Pelabuhan Namlea", "lat": -3.26722, "lng": 127.09806, "power": "EB", "year": "2016", "status": "NIHIL", "dur": 0, "cond": 90, "note": "-" },
      { "id": "5900.5", "name": "Ramsu Pelabuhan Kayoa", "lat": -0.12171, "lng": 128.44754, "power": "EB", "year": "2015", "status": "NIHIL", "dur": 0, "cond": 90, "note": "-" },
      { "id": "5900.6", "name": "Ramsu Pelabuhan Busua", "lat": -0.21114, "lng": 127.13171, "power": "EB", "year": "2013", "status": "PADAM", "dur": 31, "cond": 90, "note": "-" },
      { "id": "5900.7", "name": "Ramsu Pelabuhan Wayaloar", "lat": -1.72000, "lng": 127.61200, "power": "EB", "year": "1973/1990/2015", "status": "NIHIL", "dur": 0, "cond": 90, "note": "-" },
      { "id": "5911", "name": "Ramsu Pelabuhan Sanana", "lat": -2.05472, "lng": 125.97389, "power": "EB", "year": "2015", "status": "NIHIL", "dur": 0, "cond": 90, "note": "-" },
      { "id": "5913.7", "name": "Ramsu Pelabuhan Galela", "lat": 1.82000, "lng": 127.84806, "power": "EB", "year": "2015", "status": "PADAM", "dur": 31, "cond": 90, "note": "-" },
      { "id": "5915.1", "name": "Ramsu Pelabuhan Daruba", "lat": 2.05009, "lng": 128.19012, "power": "EB", "year": "2014", "status": "NIHIL", "dur": 0, "cond": 90, "note": "-" },
      { "id": "5918.2", "name": "Ramsu Pelabuhan Jikotamo/Laiwui", "lat": -1.33400, "lng": 127.65500, "power": "EB", "year": "2013", "status": "NIHIL", "dur": 0, "cond": 90, "note": "-" },
      { "id": "5922.1", "name": "Ramsu Pelabuhan Ulima Ambalau", "lat": -3.82478, "lng": 127.17828, "power": "EB", "year": "1990", "status": "NIHIL", "dur": 0, "cond": 90, "note": "-" },
      { "id": "5925", "name": "Ramsu Pelabuhan Babang", "lat": -0.62675, "lng": 127.63725, "power": "-", "year": "1990", "status": "PADAM", "dur": 31, "cond": 0, "note": "Surat usulan pemusnahan BMN" },
      { "id": "5926", "name": "Ramsu Pelabuhan Saketa", "lat": 0.36611, "lng": 127.84211, "power": "EB", "year": "2015", "status": "NIHIL", "dur": 0, "cond": 90, "note": "-" },
      { "id": "5927", "name": "Ramsu Pel. Mafa", "lat": 0.05194, "lng": 127.89250, "power": "EB", "year": "2012", "status": "NIHIL", "dur": 0, "cond": 80, "note": "-" },
      { "id": "5932_POR", "name": "Ramsu Pelabuhan Namrole", "lat": -3.84938, "lng": 126.72144, "power": "EB", "year": "1990", "status": "NIHIL", "dur": 0, "cond": 80, "note": "-" },
      { "id": "5940", "name": "Ramsu Pelabuhan Saparua / Haria", "lat": -3.58750, "lng": 128.62361, "power": "EB", "year": "1990/2017", "status": "NIHIL", "dur": 0, "cond": 90, "note": "-" },
      { "id": "5960", "name": "Ramsu Pelabuhan Banda", "lat": -4.52136, "lng": 129.89728, "power": "EB", "year": "2010", "status": "NIHIL", "dur": 0, "cond": 90, "note": "-" },
      { "id": "5964", "name": "Ramsu Pelabuhan Wahai", "lat": -2.78836, "lng": 129.50847, "power": "EB", "year": "2014", "status": "NIHIL", "dur": 0, "cond": 90, "note": "-" },
      { "id": "5964,1", "name": "Ramsu Pelabuhan Kobisadar", "lat": -2.91526, "lng": 129.80725, "power": "EB", "year": "2011", "status": "NIHIL", "dur": 0, "cond": 90, "note": "-" },
      { "id": "5970,6", "name": "Ramsu Pelabuhan Geser", "lat": -3.87917, "lng": 130.89344, "power": "EB", "year": "1973/1992/2007", "status": "NIHIL", "dur": 0, "cond": 90, "note": "-" },
      { "id": "5971", "name": "Ramsu Pelabuhan Amahai", "lat": -3.33611, "lng": 128.92333, "power": "EB", "year": "1990/2015", "status": "PADAM", "dur": 31, "cond": 90, "note": "-" },
      { "id": "5972", "name": "Ramsu Pelabuhan Tulehu", "lat": -3.57222, "lng": 128.32361, "power": "EB", "year": "2013", "status": "NIHIL", "dur": 0, "cond": 90, "note": "-" },
      { "id": "5973", "name": "Ramsu Pelabuhan Sesar Bula", "lat": -3.06342, "lng": 130.45105, "power": "EB", "year": "2016", "status": "NIHIL", "dur": 0, "cond": 90, "note": "-" },
      { "id": "5974,1", "name": "Ramsu Pelabuhan Sopi / Morotai", "lat": -2.58016, "lng": 128.52738, "power": "EB", "year": "2016", "status": "NIHIL", "dur": 0, "cond": 85, "note": "-" },
      { "id": "5974,2", "name": "Ramsu Pelabuhan Bere - Bere", "lat": -2.38948, "lng": 128.66441, "power": "EB", "year": "2015", "status": "PADAM", "dur": 31, "cond": 85, "note": "-" },
      { "id": "5974,6", "name": "Ramsu Pelabuhan Wayabula", "lat": -2.28639, "lng": 128.20156, "power": "EB", "year": "2016", "status": "PADAM", "dur": 31, "cond": 85, "note": "-" },
      { "id": "5974,8_M", "name": "Ramsu Pelabuhan Maibufa", "lat": -2.03038, "lng": 125.86210, "power": "EB", "year": "2016", "status": "PADAM", "dur": 31, "cond": 85, "note": "-" },
      { "id": "5975,1", "name": "Ramsu Pelabuhan Weda", "lat": 0.33333, "lng": 127.86844, "power": "EB", "year": "2016", "status": "NIHIL", "dur": 0, "cond": 85, "note": "-" },
      { "id": "5975,2", "name": "Ramsu Pelabuhan Gita / Payahe", "lat": -0.39074, "lng": 127.37258, "power": "EB", "year": "2014", "status": "NIHIL", "dur": 0, "cond": 85, "note": "-" },
      { "id": "5975,3", "name": "Ramsu Pelabuhan Trikora (Soasiu)", "lat": 0.67924, "lng": 127.33614, "power": "EB", "year": "2014", "status": "NIHIL", "dur": 0, "cond": 85, "note": "-" },
      { "id": "5977,1", "name": "Ramsu Pelabuhan HatuPiru", "lat": -3.10222, "lng": 128.17906, "power": "EB", "year": "2014", "status": "NIHIL", "dur": 0, "cond": 85, "note": "-" },
      { "id": "5979,1", "name": "Ramsu Pelabuhan Tikong", "lat": -1.64654, "lng": 124.53581, "power": "EB", "year": "2015", "status": "NIHIL", "dur": 0, "cond": 85, "note": "-" },
      { "id": "5981,8", "name": "Ramsu Pelabuhan Bobong", "lat": -1.95057, "lng": 124.37222, "power": "EB", "year": "2016", "status": "PADAM", "dur": 31, "cond": 90, "note": "-" },
      { "id": "5982,1", "name": "Ramsu Pelabuhan Tehoru", "lat": -3.37731, "lng": 129.54475, "power": "EB", "year": "2016", "status": "NIHIL", "dur": 0, "cond": 90, "note": "-" },
      { "id": "5982,2", "name": "Ramsu Pelabuhan Bemu", "lat": -3.41380, "lng": 129.97358, "power": "EB", "year": "2015", "status": "NIHIL", "dur": 0, "cond": 85, "note": "-" },
      { "id": "5989,1", "name": "Ramsu Pelabuhan Dama", "lat": 2.22196, "lng": 127.78440, "power": "EB", "year": "2015", "status": "NIHIL", "dur": 0, "cond": 85, "note": "-" },
      { "id": "6386,9", "name": "Ramsu Pelabuhan Buli", "lat": 0.88419, "lng": 128.29716, "power": "EB", "year": "2015", "status": "NIHIL", "dur": 0, "cond": 85, "note": "-" },
      { "id": "KUM_POR", "name": "Ramsu Pelabuhan Kumber", "lat": -4.53653, "lng": 129.93203, "power": "EB", "year": "2016", "status": "NIHIL", "dur": 0, "cond": 90, "note": "-" },
      { "id": "FOGI_POR", "name": "Ramsu Fogi Nanali Port", "lat": -3.20814, "lng": 126.00194, "power": "EB", "year": "2017", "status": "NIHIL", "dur": 0, "cond": 90, "note": "-" },
      { "id": "DOFA_POR", "name": "Ramsu Dofa Port", "lat": -1.80400, "lng": 125.37614, "power": "EB", "year": "2017", "status": "NIHIL", "dur": 0, "cond": 90, "note": "-" },
      { "id": "KUP_POR", "name": "Ramsu Kupal Port", "lat": 0.66759, "lng": 127.47460, "power": "EB", "year": "2020", "status": "PADAM", "dur": 31, "cond": 95, "note": "-" },
      { "id": "IND_POR", "name": "Ramsu Indari Port", "lat": 0.43203, "lng": 127.30525, "power": "EB", "year": "2020", "status": "PADAM", "dur": 31, "cond": 95, "note": "-" },
      { "id": "LOL_POR", "name": "Ramsu Loleo Jaya Port", "lat": 0.35344, "lng": 127.26669, "power": "EB", "year": "2020", "status": "PADAM", "dur": 31, "cond": 95, "note": "-" },
      { "id": "WAY_POR", "name": "Ramsu Wayaua Port", "lat": 0.74100, "lng": 127.64741, "power": "EB", "year": "2020", "status": "NIHIL", "dur": 0, "cond": 95, "note": "-" },
      { "id": "BUA_POR", "name": "Ramsu Buano Port", "lat": -3.00148, "lng": 127.94633, "power": "EB", "year": "2020", "status": "NIHIL", "dur": 0, "cond": 95, "note": "-" },
      { "id": "MAN_POR", "name": "Ramsu Pelabuhan Manipa", "lat": -3.34218, "lng": 127.59055, "power": "EB", "year": "2020", "status": "NIHIL", "dur": 0, "cond": 95, "note": "-" }
    ]
  },
  {
    "category": "V. PELAMPUNG SUAR",
    "stations": [
      { "id": "5902.10", "name": "Alur Masuk Laiwui Merah", "lat": -1.33121, "lng": 127.66629, "power": "EB", "year": "2012", "status": "PADAM", "dur": 31, "cond": 0, "note": "-" },
      { "id": "5912.2", "name": "Alur masuk Tobelo Hijau", "lat": 1.72986, "lng": 128.03115, "power": "EB", "year": "2012", "status": "NIHIL", "dur": 0, "cond": 85, "note": "-" },
      { "id": "5912.3", "name": "Alur masuk Tobelo Merah", "lat": 1.74598, "lng": 128.03479, "power": "EB", "year": "2012", "status": "PADAM", "dur": 31, "cond": 0, "note": "HILANG" },
      { "id": "LEK_H", "name": "Alur Masuk Leksula hijau", "lat": -3.79072, "lng": 126.51271, "power": "EB", "year": "2012", "status": "PADAM", "dur": 31, "cond": 85, "note": "-" },
      { "id": "NAM_H", "name": "Alur Masuk Namlea hijau", "lat": -3.27692, "lng": 127.08147, "power": "EB", "year": "2012", "status": "NIHIL", "dur": 0, "cond": 85, "note": "-" },
      { "id": "NAM_K", "name": "Alur Masuk Namlea Kuning", "lat": -3.28206, "lng": 127.08182, "power": "EB", "year": "2012", "status": "PADAM", "dur": 31, "cond": 80, "note": "-" },
      { "id": "BULI_B", "name": "Alur Masuk Buli bahaya terpencil", "lat": 0.73442, "lng": 128.38439, "power": "EB", "year": "2012", "status": "PADAM", "dur": 31, "cond": 85, "note": "-" },
      { "id": "TNI_1", "name": "Teluk Dalam 1 (Pangkalan TNI AL)", "lat": -3.65356, "lng": 128.21797, "power": "EB", "year": "2021", "status": "NIHIL", "dur": 0, "cond": 95, "note": "-" },
      { "id": "TNI_2", "name": "Teluk Dalam 2 (Pangkalan TNI AL)", "lat": -3.65353, "lng": 128.22019, "power": "EB", "year": "2021", "status": "NIHIL", "dur": 0, "cond": 95, "note": "-" },
      { "id": "LAG_B", "name": "Depan Laguna Banda kuning", "lat": -4.51700, "lng": 129.89739, "power": "-", "year": "2010", "status": "NIHIL", "dur": 0, "cond": 0, "note": "-" },
      { "id": "HMA_B", "name": "Depan Hotel Maulana Banda kuning", "lat": -4.52136, "lng": 129.89728, "power": "-", "year": "2010", "status": "NIHIL", "dur": 0, "cond": 0, "note": "-" }
    ]
  }
]
